stop_id,stop_name,stop_lat,stop_lon,location_type,parent_station
1400015,"Gaillard Libération",46.1916149478912,6.21145493182612,,
1400017,"Gaillard Millet",46.1913848600709,6.21661126155768,,
1400361,"Saint-Julien Lycée de Staël",46.1411280299141,6.07007807239171,,
1400398,"Beaumont le Châble",46.098954796308,6.10318099061612,,
1400646,"Saint-Julien Rue des Muguets",46.1366339115263,6.08057937806453,,
1400679,"Ferney  mairie",46.2556413891828,6.10811274152663,,
1400719,"Gex centre",46.3317890269621,6.05851675468348,,
1400939,"Saint-Julien Casino",46.1288834967472,6.09015541899458,,
1400941,"Neydens Centre de Loisirs",46.1205342395247,6.09472784379138,,
1400943,"Neydens-Les Mouilles",46.116343568669,6.09731499181,,
1401005,"Prévessin-Moëns mairie",46.2544301667454,6.08101955255381,,
1401031,"Saint-Genis Jean Monnet",46.2452177894506,6.02327584608257,,
1401097,"Sergy gare",46.2484792597527,6.01132825280211,,
1401150,"Viry La Côte",46.1124701838208,6.05174345744028,,
1401186,"Chens-sur-Léman (F)",46.3173844657285,6.26709658053223,,
1401231,"Saint-Julien Route Feigères",46.1368331045972,6.07898936001142,,
1401233,"Saint-Julien centre",46.1447193261967,6.08219634557617,,
1401235,"Saint-Julien Cervonnex",46.1328055296997,6.08662503992749,,
1401257,"Thoiry centre commercial",46.227117765505,5.99248159813866,,
1401326,"Veigy douane (F)",46.2764205561455,6.24658804259292,,
1401636,"Collonges-sous-Salève marché",46.1420429924539,6.13914055144443,,
1401637,"Archamps Pont de Combe",46.1377605878451,6.12788466093285,,
1401638,"Saint-Julien Lathoy hameau",46.1412836368613,6.10434880048564,,
1401639,"Saint-Julien-en-Genevois gare",46.1431259896867,6.08510688709712,,
1401640,"Saint-Julien hôpital",46.1460263256228,6.07987869214282,,
1401647,"Challex école",46.1790395474168,5.96860437788344,,
1401649,"Challex La Halle",46.1820375054046,5.97282645971939,,
1401650,"Challex Poizat",46.181160526311,5.9747758038862,,
1401651,"Challex église",46.1833125209771,5.97629395671658,,
1401652,"Challex Corbière",46.1792572469656,5.97648260292627,,
1401654,"Challex Fontanettes",46.1810423507537,5.98229470281533,,
1401655,"Challex Gaillardin (F)",46.1788031869307,5.98471117092995,,
1401656,"Challex Les Baraques (F)",46.1766074738577,5.98573525035399,,
1401678,"Cessy centre",46.3141829370406,6.06676328899285,,
1401679,"Cessy les Hauts",46.3230549308509,6.06734719392761,,
1401682,"Cessy Saint-Denis",46.3190720178644,6.07073384254921,,
1401684,"Cessy Côte du Moralay",46.3177753372148,6.07173995566756,,
1401702,"Archamps Centre de convention",46.1360612274338,6.12329426983036,,
1401703,"Archamps Communauté-Commun",46.1378788563979,6.11760793408109,,
1401707,"Beaumont Route de Viry",46.093927721652,6.10299234440643,,
1401709,"Chênex La Boutique",46.1113928113487,5.99044242244343,,
1401711,"Collonges-Salève Bourg Haut",46.138271008203,6.14568028671373,,
1401712,"Collonges-sous-Salève mairie",46.1404433541218,6.14495265133349,,
1401732,"Ferney Avenue du Jura",46.2578401553966,6.11374517835884,,
1401733,"Ferney Bois Candide",46.2449506509103,6.09404512417535,,
1401734,"Ferney Brunette",46.2533431494732,6.11679945032527,,
1401735,"Ferney Château",46.2589519273503,6.10703476318553,,
1401736,"Ferney douane (F)",46.2509889067781,6.11794031073626,,
1401737,"Ferney Jargilières",46.2555544305146,6.11680843347811,,
1401738,"Ferney Levant",46.2604798006324,6.11493095453404,,
1401739,"Ferney Lycée",46.2641626697505,6.11501180290962,,
1401740,"Ferney Planche-Brulée",46.2550513097987,6.10053994368044,,
1401755,"Gex Georges Charpak",46.3355725418813,6.06750889067877,,
1401756,"Gex L'Aiglette",46.3380347872084,6.0734198052491,,
1401767,"Ornex Fruitière",46.272440458948,6.09621904716323,,
1401768,"Ornex Les Roussets",46.263609944633,6.10274081612684,,
1401769,"Ornex Prénépla",46.2696026780417,6.09853670059658,,
1401775,"Pougny gare (F)",46.1436425843102,5.96053750663093,,
1401776,"Prévessin Ancienne Douane",46.2473362141376,6.07977089430871,,
1401777,"Prévessin Bretonnière",46.2513802522767,6.07425523846345,,
1401778,"Prévessin Collège Le Joran",46.2556165438631,6.07261132149328,,
1401779,"Prévessin Hauts-de-Magny",46.2548028534216,6.08714606279236,,
1401780,"Prévessin Les Aglands",46.2544798584486,6.06794008201521,,
1401781,"Prévessin Parc des Anneaux",46.2485413811145,6.08663402308034,,
1401783,"Prévessin Terraillet",46.2555854871976,6.09409003993957,,
1401787,"Saint-Genis CERN Alice",46.2508087626736,6.02555756690455,,
1401788,"Saint-Genis Champ Fusy",46.2465286132023,6.02828844536865,,
1401789,"Saint-Genis Clos des Vignes",46.2406141270793,6.0162779700183,,
1401790,"Saint-Genis Hautains",46.2442424168563,6.02633910120184,,
1401791,"Saint-Genis Lion",46.241819441737,6.02571028050287,,
1401792,"Saint-Genis Mitterrand",46.2503925654109,6.02933947425122,,
1401793,"Saint-Genis Schumann",46.2426519632043,6.03470241649816,,
1401794,"Saint-Genis théâtre",46.242527707071,6.02256617700801,,
1401795,"Saint-Julien Arande",46.140169481421,6.08028293402073,,
1401796,"Saint-Julien Docteur Palluel",46.1430948693738,6.07726459466567,,
1401797,"Saint-Julien Hutins",46.1484161871807,6.0862657138138,,
1401798,"Saint-Julien Route de Lathoy",46.1417753519238,6.09511411936361,,
1401800,"Ségny centre",46.2960746436443,6.07572847552961,,
1401801,"Sergy centre",46.252715775413,5.99926387853471,,
1401802,"Sergy Les Longets",46.2503615057871,6.00511191103514,,
1401807,"Thoiry gare",46.2319089810199,5.97949195912849,,
1401808,"Thoiry Place en Poulet",46.2473859122683,5.98944529247792,,
1401809,"Thoiry Pôle emploi",46.2377498453056,6.01163367999876,,
1401811,"Tougin hôpital",46.3250834993791,6.05723216382701,,
1401812,"Valleiry Espace FOL",46.1090823057307,5.97184729605957,,
1401813,"Veigy village (F)",46.2691058960318,6.25793376463293,,
1401814,"Versonnex Bois-Chatton (F)",46.2956960307548,6.10068367412592,,
1401842,"Viry Chef-Lieu",46.1179563608553,6.03710091830709,,
1401843,"Viry église",46.1187347185743,6.03728956451678,,
1401844,"Viry Essertet",46.1149237743183,6.01920647784494,,
1401845,"Viry Germagny",46.1135163982038,6.00739363185712,,
1401846,"Viry P+R (F)",46.1300227827185,6.03048033466221,,
1401849,"Valleiry gare",46.1093189657449,5.96783182673899,,
1401852,"Saint-Julien-en-Genevois SNCF",46.1423230799875,6.08636452849506,,
8501857,"Vich poste",46.428676042751,6.25000164067305,,
8503040,"Collex Crest-d'El",46.2666653890194,6.13060655624411,,
8503046,"Versoix Machefer",46.2723597363574,6.14122464290388,,
8503049,"Genthod le Haut",46.2689506507303,6.14629114110702,,
8503080,"Genthod Rennex",46.2675534232304,6.15010898106506,,
8503085,"Genthod Pierre-Grise",46.2610511894579,6.14777336132602,,
8503217,"Bellevue GE mairie",46.2546227218443,6.15469937216755,,
8503218,"Bellevue GE Mollies",46.2524548850772,6.15204035892618,,
8503229,"Les Tuileries gare",46.2503428700043,6.14661453460935,,
8503243,"Bellevue GE Roselière",46.2544736469881,6.14134142389083,,
8503247,"Chambésy gare",46.2432297505276,6.14724335530832,,
8503320,"Chambésy Ravin",46.2452799145061,6.14329076805764,,
8503330,"Satigny Champvigny",46.2205050769705,6.03490004586069,,
8503331,"Grand-Saconnex Sonnex",46.228516023366,6.12347393288721,,
8503332,"Genève Pédiatrie",46.1899172502273,6.1488064239029,,
8503333,"Genève Aubépine",46.1872742099412,6.14741403521232,,
8503419,"Dardagny Le Roulave",46.2013834636576,5.98133350546119,,
8504812,"Satigny Nant-d'Avril",46.2258064779927,6.05703453446448,,
8504813,"Satigny Bergère",46.2236437173587,6.05750165841229,,
8507345,"Chêne-Bourg gare-Tour",46.1958123268868,6.19987564781221,,
8507347,"Genève-Eaux-Vives gare/Vadier",46.2028880711247,6.16991683308265,,
8507355,"Genève Pré-Picot",46.203901481856,6.17477671877041,,
8507414,"Chambésy Plage du Vengeron",46.2458763114591,6.15197747685629,,
8507416,"Satigny Champ Magnin",46.2169435904803,6.03576242853357,,
8507418,"Puplinge Brolliets",46.2145504898769,6.2337780666396,,
8507420,"Presinge L'Avenir",46.2201445879733,6.23990457687815,,
8507422,"Jussy Les Mévaux",46.2298769601447,6.2655245287848,,
8507424,"Jussy Petit-Lullier",46.2329529257934,6.26794099689942,,
8507426,"Jussy Lullier-Plantais",46.2299142456089,6.25964954682584,,
8507428,"Jussy Lullier",46.2275217103234,6.2561281509116,,
8507430,"Vésenaz Pointe à la Bise",46.2449009505733,6.19350659244691,,
8507432,"Sézegnin Mairie d'Avusy",46.1447566694681,6.00707922150764,,
8508036,"Dardagny Route de Malval",46.1997731149756,5.98492676659817,,
8508038,"Dardagny douane",46.1961294491629,5.99221210355339,,
8508093,"Satigny Choully-Nord",46.2247499676383,6.03038151998094,,
8508099,"Grand-Saconnex temple",46.2345871566049,6.12789364408569,,
8508108,"Vernier Etang-Place",46.2162971528058,6.10483389073913,,
8508109,"Vernier Etang-Casa Bamba",46.2189325817479,6.10274081612684,,
8508111,"Confignon Evaux-Stades",46.1870192275685,6.08506197133291,,
8508113,"Vandoeuvres Sous Pressy",46.2271426237335,6.20984694746732,,
8508128,"Bernex Hainard",46.1760352056226,6.06649379440757,,
8508130,"Bernex Luchepelet",46.1783802235251,6.07323115903941,,
8508132,"Bernex Pré-Marais",46.1795869046415,6.07792036482316,,
8508134,"Bernex Vailly",46.1749963991528,6.06076254289409,,
8508248,"Vandoeuvres Centre communal",46.2239482491537,6.20597520859223,,
8508288,"Pregny Palud",46.2371595734307,6.1357269533643,,
8508290,"Versoix Nant-de-Crève-Coeur",46.2747316890519,6.16066418565493,,
8509315,"Thônex Belle-Terre-Ecole",46.2019492506384,6.21038593663787,,
8509319,"Thônex Belle-Terre-Pl. Turin",46.2039760880423,6.21411394506748,,
8509321,"Thônex Belle-Terre-Pl. Araire",46.20604015235,6.21787788610847,,
8510219,"Chambésy Pierrière",46.2374205365163,6.14789014231297,,
8570000,"Nyon gare",46.3843750076066,6.23632928204685,,
8570030,"Gland gare nord",46.4200007792226,6.26900999208767,,
8579309,"Eysins centre",46.3809605017243,6.20506791015514,,
8579316,"Bogis-Bossey",46.3520184853677,6.16519169468752,,
8579317,"Chavannes-de-Bogis village",46.3435728834879,6.16212843956825,,
8587028,"Aire-la-Ville centre",46.1897990934931,6.04375743456334,,
8587029,"Anières village",46.2769110629372,6.22324981150825,,
8587030,"Athenaz village",46.1545770704378,6.00699837313206,,
8587031,"Avully village",46.1695718933325,6.00110542486741,,
8587032,"Avusy village",46.1518265390896,5.99349669440986,,
8587033,"Bardonnex village",46.1490011895663,6.10428591841574,,
8587034,"Bernex place",46.1768749450123,6.07605186903193,,
8587035,"Bossy",46.2790841414763,6.11444586428055,,
8587036,"Vessy Plateau de Pinchat",46.1717243415511,6.14247330114898,,
8587037,"Carouge GE Tours",46.1835053256362,6.13531372833355,,
8587038,"Cartigny village",46.1729747135407,6.0200239447536,,
8587039,"Chambésy fontaine",46.2430744319527,6.14064073796912,,
8587040,"Chancy village",46.1501587291554,5.96991591819844,,
8587042,"Vandoeuvres Chougny",46.2185969445246,6.19840241074605,,
8587043,"Choulex village",46.222947638341,6.22295336746445,,
8587044,"Collex centre",46.2700311489088,6.12234205562906,,
8587045,"Collonge-Bellerive Collonge",46.2539332472373,6.20473553349997,,
8587046,"Cologny chemin des Fours",46.2174843546123,6.18322088244231,,
8587047,"Cologny croisée",46.2123499884603,6.18421801240782,,
8587048,"Bellevue GE Colovrex",46.2561693495655,6.13420880053393,,
8587050,"Bardonnex Compesières",46.151596284755,6.12236002193474,,
8587051,"Confignon mairie",46.1734350423377,6.0845948473851,,
8587053,"Corsier GE village",46.2630013195178,6.22379778383164,,
8587054,"Meinier Corsinge-village",46.2402475570612,6.24471056364885,,
8587055,"Dardagny château",46.1946992753949,5.99491603255897,,
8587056,"Chêne-Bougeries Malagnou",46.193306374731,6.17664521456164,,
8587057,"Genève Cornavin",46.2097328931811,6.14243736853761,,
8587058,"Genève Nations",46.2223012713506,6.13914055144443,,
8587059,"Genève plage",46.2115853868196,6.17237821696148,,
8587061,"Genève Rive",46.2018622068667,6.15281291007063,,
8587062,"Genève Jonction",46.2007865831646,6.12969027465418,,
8587064,"Genthod village",46.264845805454,6.15557073799326,,
8587065,"Genthod-Bellevue gare",46.256945752659,6.15324410140707,,
8587066,"Gy temple",46.2525107902537,6.25793376463293,,
8587067,"Hermance village",46.3009963729967,6.24409072610273,,
8587068,"Jussy Meurets",46.2364388117944,6.27207324720694,,
8587069,"Vésenaz Capite",46.2346617211085,6.2037473866873,,
8587070,"Croix-de-Rozon douane",46.1442649810326,6.1376313817669,,
8587071,"Vésenaz Pallanterie",46.2479450131365,6.2164675311122,,
8587072,"Cartigny Petite-Grave",46.1734785867542,6.04151164635273,,
8587073,"La Plaine gare",46.1784921847432,5.99976693509389,,
8587074,"Laconnex village",46.155933616727,6.03656192913654,,
8587075,"Lancy-Bachet gare",46.1737274113296,6.1296094262786,,
8587076,"Bernex Lully-Croisée",46.1628589488423,6.07081469092479,,
8587077,"Meinier La Tour",46.2457272128287,6.23159516049888,,
8587078,"Mies centre",46.305985921865,6.1725938126297,,
8587080,"Onex Salle communale",46.1833684965929,6.10012671864969,,
8587081,"Perly village",46.1564127558192,6.09269765124899,,
8587082,"Petit-Lancy place",46.1903960933394,6.11933269942684,,
8587083,"Plan-les-Ouates mairie",46.1686013977983,6.11818285586301,,
8587084,"Pregny village",46.2345685154632,6.13956275962803,,
8587085,"Presinge village",46.2191314769121,6.25346913767024,,
8587086,"Puplinge mairie",46.2109202368974,6.23207126759953,,
8587087,"Russin village",46.1884931337224,6.01364590623547,,
8587089,"Sézegnin village",46.144202741677,6.01135520226064,,
8587091,"Soral mairie",46.1427961134755,6.04039773540027,,
8587093,"Troinex mairie",46.1602768289856,6.14842014833068,,
8587094,"Vandoeuvres village",46.2214062891086,6.20287602086158,,
8587095,"Versoix gare",46.2798912629841,6.16518271153468,,
8587097,"Vésenaz village",46.2393963596073,6.19751307861464,,
8587381,"Satigny Bourdigny-Dessus",46.227242056535,6.03892449833411,,
8587382,"Choulex Chevrier",46.22101472979,6.22463321704599,,
8587384,"Cologny Gradelle",46.2060898878825,6.17946592455417,,
8587385,"Cologny mairie",46.2193241559154,6.18518819291481,,
8587386,"Confignon croisée",46.1787036664221,6.08942778361434,,
8587387,"Genève Bel-Air",46.2047283614253,6.1430482229309,,
8587388,"Satigny Peney-Dessous",46.2008301059197,6.04376641771619,,
8587389,"Satigny gare",46.2143267140991,6.03741532865658,,
8587415,"Satigny Choully",46.2225809503093,6.02756080998841,,
8587416,"Satigny Peissy",46.2105659014073,6.02005987736497,,
8587418,"Petit-Lancy Les Esserts",46.1880951207658,6.11309839135418,,
8587419,"Satigny La Boverie",46.2079860214734,6.0273452143202,,
8587433,"Vésenaz Saint-Maurice",46.2533679958229,6.21667414362758,,
8587437,"Carouge GE Rondeau",46.1798668011167,6.13839494975851,,
8587477,"Chancy douane",46.1443645638552,5.96575671843239,,
8587575,"Commugny centre",46.3179366484428,6.17534265739949,,
8587577,"Coppet gare",46.3174154873771,6.18828738064545,,
8587707,"Chavannes-de-B. Champs-Blancs",46.3384069053213,6.16638645401557,,
8587900,"Chêne-Bougeries Conches",46.1844009255097,6.1741389149186,,
8587901,"Bernex Aigues-Vertes",46.1990891688234,6.0749020254681,,
8587902,"Grand-Lancy mairie",46.1840899549849,6.12183001591704,,
8587903,"Bernex Loëx-Hôpital",46.1988031524535,6.08580757301883,,
8587904,"Genève OMS",46.2312627195423,6.13360692929349,,
8587905,"Veyrier douane",46.1672824918047,6.18672431205087,,
8587906,"Veyrier école",46.1670025312751,6.18243036499218,,
8587907,"Genève Plainpalais",46.198144065585,6.14316500391785,,
8587914,"Grand-Saconnex place",46.2337855817935,6.1233661350531,,
8587918,"Meyrin CERN",46.2334438215308,6.05563316262106,,
8587924,"Vernier Blandonnet",46.2220029455576,6.09727007604579,,
8587925,"Meinier Le Carre-d'Amont",46.2361032815965,6.21715025072823,,
8588195,"Troinex ville",46.1592315026333,6.14435078009305,,
8588196,"Genève Appia",46.2265522377653,6.13728103880605,,
8588298,"Chavannes-des-Bois",46.3147413566927,6.13281641184335,,
8588310,"Thônex Sous-Moulin",46.1904582804504,6.1922130184376,,
8588655,"Tannay village",46.3093058298952,6.1753246910938,,
8588663,"Crans VD village",46.3584541251439,6.20528350582336,,
8588664,"Céligny village",46.3509954092313,6.19568051543479,,
8588665,"Céligny gare",46.3481182924764,6.19965106899115,,
8588667,"Founex village",46.3329613243252,6.19187165862959,,
8588679,"Prangins La Tuilière",46.3989911402992,6.24530345173646,,
8588801,"Troinex Les Crêts",46.165216971708,6.1469019955003,,
8588802,"Carouge GE Stade de Genève",46.1794376259387,6.12881890882846,,
8589097,"Veyrier Tournettes",46.163362914728,6.17891795223078,,
8589098,"Lancy-Pont-Rouge gare",46.1878090471733,6.12472259113231,,
8592619,"Aire-la-Ville Pont-de-Peney",46.1929083966284,6.04358675465934,,
8592620,"Aire-la-Ville Treulaz",46.1858811210935,6.04539236838067,,
8592621,"Anières Chavannes",46.2831879204491,6.22927750706553,,
8592622,"Anières Sous-Chevrens",46.2866395751855,6.23406552753056,,
8592623,"Anières Courbes",46.2808039168275,6.2271754493004,,
8592624,"Anières douane",46.2683793442345,6.23795523271133,,
8592625,"Anières Gravière",46.2888619284255,6.23702996796856,,
8592626,"Anières Marguerite",46.2728440701176,6.22061774772541,,
8592627,"Avully école",46.1671829504463,6.00513886049367,,
8592628,"Avully Martinet",46.1586652759005,5.98647186888707,,
8592629,"Avully Printanière",46.1736465434661,6.00551615291305,,
8592630,"Avully Gennecy",46.1682592318285,5.99594909513585,,
8592631,"Avully Touvière",46.1751021468163,5.99806911920667,,
8592632,"Athenaz école",46.1552677931397,6.00409681476395,,
8592634,"Avusy Eaumorte Hameau",46.1632758098432,6.0191346126222,,
8592635,"Avusy La Tuiliere",46.1491692210171,6.00645938396151,,
8592636,"Sézegnin Le Renfort",46.1443956834503,6.00941484124667,,
8592637,"Avusy Les Quoattes",46.1527786616512,5.99538315650677,,
8592638,"Athenaz Passeiry",46.1567301053887,6.00386325279004,,
8592639,"Avusy Sur-le-Moulin",46.143679928312,6.01931427567905,,
8592640,"Croix-de-Rozon Place",46.1455035295761,6.13646357189738,,
8592641,"Bardonnex Evordes",46.1507686058136,6.13843088236988,,
8592642,"Bardonnex Feuillat",46.1486215610669,6.11241567173816,,
8592643,"Bardonnex Route d'Annecy",46.1540730240756,6.13914953459727,,
8592644,"Bardonnex Charrot",46.1477627197177,6.11885659232619,,
8592645,"Bellevue GE chemin des Clys",46.2501813596219,6.13025621328325,,
8592647,"Bellevue GE Le Nant",46.2465161884796,6.12855839739603,,
8592648,"Bellevue GE Planet",46.2583680946098,6.12757025058336,,
8592649,"Bellevue GE Valavran",46.2567469945139,6.13940106287686,,
8592650,"Bernex église",46.1743930115354,6.07057214579804,,
8592651,"Bernex Blanchards",46.1979326586885,6.07998648997693,,
8592652,"Bernex Cottenets",46.1623798658808,6.05883116503297,,
8592654,"Bernex Chèvres",46.1997233737243,6.07625848154731,,
8592655,"Bernex Loëx-Lanance",46.1989523785714,6.08330127337579,,
8592656,"Bernex Lully",46.1629958289223,6.07161419152777,,
8592657,"Bernex mairie",46.1753882865333,6.0733569231792,,
8592658,"Bernex Maisonnette",46.163232257349,6.04890478114207,,
8592659,"Bernex Malpertuis",46.1821556788229,6.0644456355595,,
8592660,"Bernex P+R",46.1793692063979,6.08201668251932,,
8592661,"Bernex Pont-de-Lully",46.1634935717966,6.07558474508413,,
8592662,"Bernex Pré-Polly",46.1618696690489,6.06757177274867,,
8592663,"Bernex Saule",46.1736900877151,6.06480496167319,,
8592664,"Bernex Guillon",46.1723339792067,6.06087932388104,,
8592665,"Bernex Vuillonnex",46.1778390744237,6.07932173666659,,
8592667,"Carouge GE Gavard",46.1853587036737,6.13566407129441,,
8592668,"Carouge GE Ancienne",46.1812165041179,6.14082938417881,,
8592669,"Carouge GE Armes",46.1868015587535,6.14020954663268,,
8592670,"Carouge GE De Staël",46.1761347309608,6.13265471509219,,
8592673,"Carouge GE Fillion",46.1779137159957,6.14505146601476,,
8592674,"Carouge GE Fontenette",46.1846932361991,6.14592283184048,,
8592675,"Carouge GE Grange-Collomb",46.1755002538433,6.13820630354882,,
8592676,"Carouge GE Vüy",46.1763275607911,6.14799794014708,,
8592677,"Carouge GE Marché",46.1843325121451,6.14038920968953,,
8592678,"Carouge GE Moraines",46.1822738519872,6.14444959477432,,
8592679,"Lancy-Pont-Rouge gare/Etoile",46.1875851624535,6.12762414950042,,
8592680,"Carouge GE Rue des Mouettes",46.1886361689246,6.1371013757492,,
8592682,"Carouge GE Val-d'Arve",46.1846683587541,6.15001914953663,,
8592684,"Cartigny Croix-en-Champagne",46.172159797709,6.03337290987748,,
8592685,"Cartigny Eaumorte-Croisée",46.1662061913112,6.02495569566411,,
8592686,"Cartigny La Passe",46.1699078301048,6.02159599650103,,
8592687,"Cartigny Moulin-de-Vert",46.1749839582378,6.0222248172,,
8592688,"Chancy Les Bouveries",46.1513971450941,5.97540462458517,,
8592689,"Chancy Raclerets",46.149598632394,5.97252103252275,,
8592690,"Chancy usine",46.15663676747,5.98128858969698,,
8592691,"Chêne-Bougeries C.-Florissant",46.1871062948531,6.17016836136224,,
8592692,"Chêne-Bougeries Calandrini",46.1829455683062,6.1783070978375,,
8592693,"Chêne-Bougeries Castan",46.2062328772875,6.19642611712071,,
8592694,"Chêne-Bougeries Grangettes",46.1988342412615,6.18036423983841,,
8592695,"Chêne-Bougeries Fourches",46.204324248905,6.19079368028849,,
8592696,"Chêne-Bougeries L.-Sismondi",46.2018249023509,6.19559068390636,,
8592697,"Chêne-Bougeries Montagne",46.2046910588556,6.19945343962861,,
8592698,"Chêne-Bougeries Parc Stagni",46.1957750182634,6.18667939628665,,
8592699,"Chêne-Bougeries Rue Chêne-B.",46.1970124074275,6.18930247691665,,
8592700,"Chêne-Bougeries Seymaz",46.2068856502778,6.20107939029309,,
8592701,"Chêne-Bougeries Vallon",46.1921062132564,6.18189137582163,,
8592702,"Chêne-Bougeries Villette",46.1816145668789,6.18158594862499,,
8592703,"Chêne-Bougeries Ch.de l'Eperon",46.2040382597867,6.18702973924751,,
8592704,"Chêne-Bougeries Coll.Claparède",46.1901535629339,6.18658956475823,,
8592705,"Chêne-Bougeries Coq-d'Inde",46.2053625012338,6.19381201964356,,
8592706,"Chêne-Bougeries Grange-Falquet",46.1982746400266,6.18563735055693,,
8592707,"Chêne-Bourg De Haller",46.1998166385335,6.19705493781968,,
8592708,"Chêne-Bourg gare-Place",46.1969315738101,6.19418931206294,,
8592709,"Chêne-Bourg Peillonnex",46.1939779562442,6.1965518812605,,
8592711,"Chêne-Bourg Petit-Bel-Air",46.2040133910974,6.20325331328097,,
8592713,"Chêne-Bourg Place Favre",46.1953646217344,6.19247352987003,,
8592714,"Thônex Belle-Idée-Réception",46.2052878969304,6.20650521460993,,
8592715,"Chêne-Bourg Saut-du-Loup",46.2016632491565,6.20014514239748,,
8592716,"Chêne-Bourg Stade Trois-Chêne",46.1920502465377,6.19214115321486,,
8592717,"Choulex Bonvard",46.2329591396909,6.21142798236759,,
8592718,"Choulex Petit-Miolan",46.2203683400432,6.21805754916532,,
8592719,"Choulex Rouette",46.2309209435691,6.21310783194913,,
8592720,"Collex école",46.2721424057149,6.12523463084433,,
8592721,"Collex La Prêle",46.2676217329585,6.12477649004936,,
8592722,"Collex Seuchat",46.2739741655795,6.12262053336717,,
8592723,"Collex Vireloup",46.2637714154682,6.12471360797946,,
8592724,"Collonge-Bellerive Bellerive",46.2514113113236,6.20229211592682,,
8592725,"Collonge-Bellerive Bois-Caran",46.2483239560402,6.20081887886066,,
8592726,"Collonge-Bellerive La Gabiule",46.2599580925912,6.21247901125016,,
8592727,"Collonge-Bellerive Rte St-Mau",46.2566103478713,6.20754726033966,,
8592728,"Collonge-Bellerive Savonnière",46.2580761759084,6.20929897514393,,
8592729,"Vésenaz Bois-Galland",46.2468392303537,6.21265867430701,,
8592730,"Vésenaz Californie",46.240471227194,6.20955948657636,,
8592731,"Vésenaz Chemin des Princes",46.2330834174938,6.20195973927165,,
8592732,"Vésenaz Crêts-de-la-Capite",46.2356124096478,6.20783472123061,,
8592733,"Vésenaz église",46.2378492588913,6.1991749618905,,
8592734,"Vésenaz La Bise",46.2435714498447,6.19859105695574,,
8592735,"Vésenaz La Dame",46.2507217963424,6.21956671884285,,
8592736,"Vésenaz Mancy",46.2429004746268,6.20278618933316,,
8592737,"Vésenaz Petray",46.2453668894656,6.20627165263603,,
8592738,"Vésenaz Repentance",46.2552252285929,6.22341150825942,,
8592740,"Cologny Bessinge",46.2247810417625,6.19220403528476,,
8592741,"Cologny Boissier",46.233015064737,6.1909014781226,,
8592742,"Cologny Chemin du Righi",46.2161852685896,6.17651046726901,,
8592743,"Cologny Clos du Môlan",46.2052630288067,6.18354427594464,,
8592744,"Cologny Falquets",46.2132016053991,6.18649973322981,,
8592745,"Cologny Fraidieu",46.220983653534,6.18792805453175,,
8592747,"Cologny La Belotte",46.2353327970812,6.19398269954756,,
8592748,"Cologny Le-Fort",46.2090988038241,6.18069661649359,,
8592749,"Cologny Montalègre",46.2214000739031,6.18031034092136,,
8592750,"Cologny Rippaz",46.2285098089654,6.19657883071903,,
8592751,"Cologny Ruth",46.2273912053994,6.18517022660912,,
8592752,"Cologny Temple",46.2160858157616,6.18119068989992,,
8592753,"Cologny Tour-Carrée",46.2248494047738,6.18292443839851,,
8592754,"Confignon Bains de Cressy",46.1855204048342,6.08776590033848,,
8592755,"Confignon Cressy",46.1822862912529,6.0882779400505,,
8592756,"Confignon Croix-de-Chavant",46.1720353820157,6.08248380646713,,
8592757,"Confignon Berthet",46.1832316672092,6.09091000383334,,
8592758,"Confignon La Dode",46.1807811196731,6.09468292802717,,
8592759,"Confignon Les Oulaines",46.168470752861,6.07925885459669,,
8592760,"Corsier GE Corsier-Port",46.2642371940591,6.21436547334707,,
8592761,"Anières Foyer",46.2717512083864,6.23294263342525,,
8592762,"Corsier GE Le Soleil",46.259579230069,6.22832529286423,,
8592763,"Corsier GE Maisons-Neuves",46.2616349936293,6.23006802451567,,
8592764,"Anières Nant-d'Aisy",46.2707700980419,6.21905467913083,,
8592765,"Corsier GE Prés-Palais",46.2666405486947,6.21653939633494,,
8592766,"Dardagny Essertines",46.2052008584484,5.98731628525426,,
8592767,"Dardagny La Donzelle",46.1844879969414,6.00821109876579,,
8592768,"La Plaine école",46.1779012757408,6.00312663425696,,
8592769,"Dardagny Le Moulin",46.1814777331299,6.0073038003287,,
8592770,"Dardagny Les Tilleuls",46.1912045202952,5.99736843328495,,
8592771,"Dardagny Malval-Hameau",46.2109824007828,5.98926562942107,,
8592773,"Genève 31 Décembre",46.201700553782,6.16211945641541,,
8592774,"Genève Acacias",46.192641003472,6.13829613507724,,
8592775,"Genève-Aéroport Terminal",46.2308898729206,6.11013395091618,,
8592776,"Genève Gos",46.187902332204,6.15473530477892,,
8592777,"Genève Alpes",46.209024204595,6.14718945639126,,
8592778,"Genève Amandolier",46.2000093853042,6.16768002802488,,
8592779,"Genève Athénée",46.1981565012595,6.14892320488985,,
8592780,"Genève Augustins",46.1918388161971,6.14400043713219,,
8592782,"Genève Bains",46.1997482443556,6.13754155023848,,
8592785,"Genève Baulacre",46.2164649787026,6.13922139982001,,
8592786,"Genève Beau-Séjour",46.1887605470588,6.15001914953663,,
8592788,"Genève BIT",46.2304673103541,6.13489152014995,,
8592789,"Genève Blanche",46.1888227360204,6.14303923977805,,
8592791,"Genève Bouchet",46.2164276841032,6.11808404118174,,
8592792,"Genève Bourg-de-Four",46.2001523905358,6.14860879454037,,
8592793,"Genève Bout-du-Monde",46.1818820136778,6.1573134696447,,
8592794,"Genève Bovy-Lysberg",46.2023969021428,6.1428595767212,,
8592795,"Genève Butini",46.216732255924,6.14790810861866,,
8592796,"Genève Calas",46.1899607815917,6.15247155026262,,
8592797,"Genève Camille-Martin",46.2062763957282,6.11803014226468,,
8592798,"Genève Canonnière",46.2148302083168,6.1340111711714,,
8592799,"Genève Cathédrale",46.2014642907258,6.14781827709023,,
8592801,"Genève Chantepoulet",46.208153872769,6.14355127949007,,
8592802,"Genève Charmilles",46.2078119529215,6.12721990762251,,
8592803,"Genève De-Châteaubriand",46.2167881975033,6.1510701784192,,
8592804,"Genève Cirque",46.2010850242216,6.14032632761963,,
8592805,"Genève Place Claparède",46.1957066190548,6.15072881861119,,
8592806,"Genève Clinique Générale",46.1900167504381,6.16140978734085,,
8592808,"Genève Colladon",46.2231030138869,6.12345596658152,,
8592809,"Genève Collège Rousseau",46.2181867184655,6.12108441423112,,
8592810,"Genève Contamines",46.1960361780952,6.15623549130361,,
8592811,"Genève Contrat-Social",46.2064069508434,6.12248578607454,,
8592812,"Genève Coutance",46.2074451638098,6.14219482341086,,
8592813,"Genève Crêts-de-Champel",46.1871622666061,6.15891247085066,,
8592816,"Genève Délices",46.2054246714093,6.13222352375575,,
8592818,"Genève Dôle",46.2087444565834,6.13148690522267,,
8592819,"Genève Ecole-de-Médecine",46.1976093289205,6.1393022481956,,
8592820,"Genève Eglise Russe",46.1984176497731,6.15280392691779,,
8592822,"Genève Epinettes",46.1907381215796,6.13596051533821,,
8592823,"Genève Florence",46.1941271954659,6.17203685715347,,
8592824,"Genève Florissant",46.196962663677,6.15373817481341,,
8592825,"Genève Maison de la Paix",46.2200264962354,6.1456533372552,,
8592826,"Genève Franchises",46.2133880890977,6.11915303636999,,
8592828,"Genève Liszt",46.1988342412615,6.1492915141564,,
8592829,"Genève-Eaux-Vives gare",46.2000839967758,6.16452694137718,,
8592830,"Genève Gautier",46.21351862731,6.15049525663728,,
8592831,"Genève Goulart",46.207538415511,6.14144922172494,,
8592832,"Genève Grand-Pré",46.2160485209046,6.13067842146685,,
8592833,"Genève Grange-Canal",46.1996114557443,6.1746689209363,,
8592834,"Genève Grottes",46.2125675560874,6.13787392689365,,
8592835,"Genève Guye",46.2089060889417,6.12318647199625,,
8592837,"Genève Hôpital",46.1948298580221,6.1491028679467,,
8592838,"Genève Hôtel-de-Ville",46.2010912417264,6.14662351776219,,
8592839,"Genève Industrielle",46.190358781039,6.13385845757307,,
8592840,"Genève Intercontinental",46.2244640848707,6.13366981136338,,
8592841,"Genève Mercier",46.2068669997286,6.1395358101695,,
8592842,"Carouge GE Pictet-Thellusson",46.1889160193308,6.13101978127486,,
8592843,"Genève Jardin Botanique",46.223892314869,6.14771047925612,,
8592844,"Genève Jean-Jacques",46.2043055974862,6.1252076813858,,
8592845,"Genève Joli-Mont",46.2218662123608,6.11714081013328,,
8592846,"Genève Krieg",46.1937665333196,6.16079893294757,,
8592847,"Genève La Fenêtre",46.2300261018496,6.13873630956652,,
8592848,"Genève Lombard",46.1955200753257,6.14720742269695,,
8592849,"Genève Aubert",46.1924357938883,6.16365557555147,,
8592850,"Genève Lyon",46.2094780150057,6.13884410740063,,
8592851,"Genève M. d'art et d'histoire",46.1996301087568,6.15114204364194,,
8592852,"Genève Maison des Parlements",46.2258934838215,6.12385122530659,,
8592853,"Genève Maternité-Pédiatrie",46.1911609899159,6.14597673075753,,
8592854,"Genève Merle-d'Aubigné",46.2066804938881,6.16189487759435,,
8592855,"Genève Mervelet",46.2195665575721,6.12289002795245,,
8592856,"Genève Métropole",46.2033978874489,6.15151933606132,,
8592858,"Genève Miléant",46.2046724075613,6.12772296418168,,
8592860,"Genève Miremont",46.1893389016858,6.15637922174909,,
8592861,"Genève Moillebeau",46.2204056319663,6.12945671268028,,
8592862,"Genève Molard",46.2031118935082,6.14718047323842,,
8592863,"Genève Môle",46.2131518763059,6.14549164050404,,
8592864,"Genève Mont-Blanc",46.2072151422698,6.14703674279294,,
8592865,"Genève-Eaux-Vives gare/Bloch",46.2030310688638,6.16627865618146,,
8592866,"Genève Monthoux",46.2104788712881,6.14850099670626,,
8592867,"Genève Motta",46.2190382448936,6.13412795215835,,
8592868,"Genève Musée d'ethnographie",46.1978083013105,6.13626594253485,,
8592869,"Genève Musée Voltaire",46.2071778413888,6.13390337333729,,
8592870,"Genève Muséum",46.1985233523901,6.15730448649186,,
8592871,"Genève Navigation",46.2118899854968,6.14964185711725,,
8592873,"Genève Ormeaux",46.2060215015137,6.13652645396728,,
8592874,"Genève Palladium",46.2030186342925,6.13356201352927,,
8592876,"Genève parc plage Eaux-Vives",46.2093723334641,6.16746443235666,,
8592878,"Genève-Champel gare/Peschier",46.1937789699848,6.15385495580036,,
8592879,"Genève Petit-Palais",46.1976342005087,6.15169001596533,,
8592880,"Genève Petit-Saconnex",46.2230035735882,6.12849551532613,,
8592881,"Genève Philosophes",46.1967201622487,6.14619232642575,,
8592883,"Genève Place des Eaux-Vives",46.2025399011603,6.15545395700631,,
8592885,"Genève Place de Neuve",46.2011969392001,6.14418010018904,,
8592886,"Genève-Champel gare",46.1921621799181,6.1532710508656,,
8592887,"Genève Pont-d'Arve",46.1948982583221,6.14342551535028,,
8592888,"Genève poste",46.2129343109935,6.14123362605672,,
8592889,"Genève Poterie",46.21179052489,6.1335889629878,,
8592890,"Genève Prairie",46.2084957904881,6.13574491966999,,
8592891,"Genève Queue-d'Arve",46.195830981189,6.12938484745754,,
8592892,"Genève Reverdin",46.1902406252539,6.15037847565033,,
8592893,"Genève Riant-Parc",46.2215865297611,6.11917100267567,,
8592894,"Genève Rieu",46.1962600283917,6.16610797627745,,
8592895,"Genève-Sécheron gare",46.2234324085898,6.14462925783117,,
8592898,"Genève-Champel gare/Hôpital",46.1931633516821,6.15057610501286,,
8592899,"Grand-Saconnex Giacometti",46.227285558329,6.11953032878937,,
8592900,"Genève Rue du Lac",46.2037647035848,6.15786144196809,,
8592902,"Genève Perle du Lac",46.2203994166475,6.14983050332694,,
8592903,"Genève Servette",46.2132389021895,6.13052570786853,,
8592904,"Genève Seujet",46.2039512193248,6.1323403047427,,
8592905,"Genève Collège Sismondi",46.2210022992898,6.1414402385721,,
8592906,"Genève Stand",46.2036900971115,6.13988615313036,,
8592907,"Genève Saint-Antoine",46.1999099031844,6.15098034689078,,
8592908,"Genève Sainte-Clotilde",46.1998104208845,6.13282539499619,,
8592909,"Genève Taconnerie",46.2004757053396,6.14784522654876,,
8592910,"Genève Terrassière",46.2010788067161,6.15641515436045,,
8592911,"Genève Tourelle",46.2242154899495,6.12706719402418,,
8592912,"Genève Tranchées",46.1985295701848,6.15551683907621,,
8592913,"Genève Trembley",46.2180375445932,6.12620481135131,,
8592914,"Genève UIT",46.2206480288484,6.13616712785358,,
8592915,"Genève Uni-Mail",46.1951158950737,6.14093718201292,,
8592916,"Genève Valais",46.216694961506,6.14126955866809,,
8592917,"Genève Varembé",46.2207785498033,6.1402544623969,,
8592918,"Genève Velours",46.1894694970497,6.1673656176754,,
8592919,"Genève Vermont",46.2193055095898,6.13826020246587,,
8592920,"Genève Vernets",46.1932068804755,6.1339482891015,,
8592921,"Genève Vidollet",46.2176273143549,6.13641865613317,,
8592922,"Genève Vieusseux",46.2150353342672,6.1252076813858,,
8592923,"Genève Village-Suisse",46.20131507143,6.13559220607167,,
8592924,"Genève Villereuse",46.2006187093576,6.15854416158411,,
8592925,"Genève Vollandes",46.2052319436363,6.16028689323555,,
8592927,"Genève Weber",46.1967512522352,6.16351184510599,,
8592928,"Genève Wendt",46.2114424113478,6.12735465491514,,
8592929,"Genève-Aéroport WTC",46.229367389595,6.10642390879224,,
8592930,"Genthod Chênaie",46.2583618835898,6.1495879582002,,
8592932,"Genthod La Pralay",46.2686401588083,6.15837348168011,,
8592933,"Genthod Malagny",46.2711675119432,6.15905620129613,,
8592934,"Genthod Vieux-Valavran",46.2597096584459,6.14520417961308,,
8592935,"Grand-Saconnex Arena-Halle 7",46.233213908884,6.11220007606994,,
8592936,"Grand-Saconnex Attenville",46.2278324350841,6.11408653816685,,
8592937,"Grand-Saconnex Palexpo-Halle 7",46.2358795936581,6.11588316873534,,
8592938,"Grand-Saconnex CS Blanché",46.2408191566993,6.12846856586761,,
8592939,"Grand-Saconnex Corbillettes",46.2252533662844,6.11163413744086,,
8592940,"Grand-Saconnex Crêts-Morillon",46.2286775975342,6.12783974516864,,
8592941,"Grand-Saconnex douane",46.2495104652501,6.11975490761043,,
8592942,"Grand-Saconnex Ferme Sarasin",46.2327913642105,6.12219832518358,,
8592943,"Grand-Saconnex Fret",46.2382034183268,6.11852421567102,,
8592944,"Grand-Saconnex Gardiol",46.2289261722489,6.12094068378564,,
8592945,"Grand-Saconnex Le Pommier",46.2303740975852,6.12510886670453,,
8592946,"Grand-Saconnex Machéry",46.243807531766,6.12932196538764,,
8592947,"Grand-Saconnex mairie",46.2361219222169,6.12616887873994,,
8592948,"Grand-Saconnex Massettes",46.2234324085898,6.11396077402706,,
8592949,"Grand-Saconnex P+R P47",46.2397877878137,6.12329426983036,,
8592950,"Grand-Saconnex Palexpo",46.2335121737536,6.11838048522554,,
8592951,"Grand-Saconnex Susette",46.237917605627,6.12361766333269,,
8592952,"Grand-Saconnex Taverney",46.2307780184402,6.11755403516403,,
8592953,"Grand-Saconnex Tunnel Routier",46.2437578303933,6.12327630352467,,
8592954,"Gy Turaines",46.2514734293648,6.26008073816228,,
8592955,"Gy La Chêna",46.2495912214885,6.25469084645681,,
8592956,"Gy poste",46.2513367695814,6.25563407750527,,
8592957,"Hermance Triaz",46.2961429178211,6.2431744445128,,
8592958,"Hermance Villars",46.2926608262681,6.24062322910554,,
8592959,"Jussy Bellebouche",46.2377001384452,6.27651990786395,,
8592960,"Jussy Centre Horticole",46.2240539026471,6.25019028688275,,
8592961,"Jussy Châtaignières",46.2414839444402,6.29627386096449,,
8592962,"Jussy château",46.2372652014958,6.27026763348561,,
8592963,"Jussy La Forge",46.2322756067443,6.24998367436737,,
8592964,"Jussy La Loure",46.2351650288573,6.26113176704484,,
8592965,"Jussy L'Abbaye",46.2220464515034,6.25150182719774,,
8592966,"Jussy Monniaz-Hameau",46.2418877835275,6.30620024485539,,
8592967,"Jussy Peupliers",46.238632134585,6.28040062989189,,
8592968,"Jussy place",46.2349040550452,6.26549757932627,,
8592969,"Jussy Route de Lullier",46.2258499809243,6.24898654440186,,
8592970,"Jussy Sionnet",46.233481104572,6.25062147821918,,
8592971,"Laconnex Chemin de la Douane",46.1615087952624,6.0440448954543,,
8592972,"Laconnex Mollaz",46.1542783768545,6.03371426968549,,
8592973,"Laconnex stand de tir",46.158777277255,6.03781957053449,,
8592975,"Petit-Lancy Bossons",46.1905453422878,6.11227194129268,,
8592976,"Petit-Lancy De-Ternier",46.1937292233073,6.10793307846978,,
8592978,"Petit-Lancy Chemin du Bac",46.1945376012361,6.11216414345857,,
8592979,"Petit-Lancy Cimetière St-G.",46.1970559331722,6.11538011217616,,
8592980,"Petit-Lancy Claire-Vue",46.1954952027806,6.12227917355916,,
8592982,"Grand-Lancy Curé-Baud",46.1764270856003,6.11727555742592,,
8592983,"Grand-Lancy Place du 1er-Août",46.1819504300918,6.12065322289468,,
8592984,"Plan-les-Ouates Le Rolliet",46.1720727067532,6.11006208569343,,
8592985,"Grand-Lancy Burgy",46.1807562404579,6.1136104310662,,
8592986,"Petit-Lancy Lancy-Hubert",46.1925601634244,6.10991835524796,,
8592988,"Grand-Lancy Palettes",46.1769309271824,6.12210849365515,,
8592991,"Grand-Lancy Lancy-Piscine",46.1793194466783,6.12151560556755,,
8592992,"Grand-Lancy Pontets",46.1729560514812,6.12320443830193,,
8592993,"Petit-Lancy Pré-Monnard",46.1864159718799,6.11641317475304,,
8592994,"Grand-Lancy Préventorium",46.1727010026997,6.13361591244633,,
8592995,"Petit-Lancy Quidort",46.1938287166172,6.12390512422364,,
8592997,"Petit-Lancy Les Marbriers",46.1964776597502,6.11791336127773,,
8592998,"Grand-Lancy Voirets",46.1743245857175,6.11490400507551,,
8592999,"Meinier Compois",46.2395206228325,6.23557469720809,,
8593001,"Meinier église",46.2465161884796,6.23379603294528,,
8593002,"Meinier Merlinge",46.2486469872683,6.24731567797316,,
8593003,"Meinier Murailles",46.2420679569305,6.24526751912508,,
8593004,"Meinier Pralys",46.2436397894527,6.226456797073,,
8593005,"Meinier route de Compois",46.23747024363,6.24262647218941,,
8593006,"Meinier route de Corsinge",46.2464043658492,6.23738031092942,,
8593007,"Meinier route de Presinge",46.2267946075101,6.24725279590327,,
8593008,"Meyrin Champs-Fréchets",46.2371222928886,6.07995055736556,,
8593010,"Meyrin Forumeyrin",46.2305978079645,6.08095667048391,,
8593011,"Zimeysa gare",46.2216051753121,6.06534395084374,,
8593012,"Genève-Aéroport Grand-Hangar",46.2244143659765,6.09974044307747,,
8593013,"Meyrin Hôpital de La Tour",46.230001244927,6.0677065200413,,
8593014,"Genève-Aéroport ICC",46.226260149728,6.10136639374195,,
8593015,"Meyrin Jardin-Alpin-Vivarium",46.2264279451735,6.08290601465072,,
8593018,"Meyrin Maisonnex",46.2320332612009,6.06059186299009,,
8593019,"Meyrin Sainte-Cécile",46.2354260014284,6.0832833070701,,
8593021,"Genève-Aéroport Tour-Contrôle",46.2285470953584,6.1039804912191,,
8593022,"Meyrin Vaudagne",46.2331207007798,6.07779460068337,,
8593023,"Meyrin Vernes",46.2344007449029,6.0756206776955,,
8593025,"Meyrin Veyrot",46.2270059033374,6.06170577394255,,
8593026,"Meyrin village",46.2288578143146,6.07199148394715,,
8593027,"Onex Bandol",46.1859059979896,6.10638797618087,,
8593028,"Onex Belle-Cour",46.1795993445151,6.10323488953318,,
8593029,"Onex La Traille",46.1843760479324,6.09434156821916,,
8593030,"Onex cité",46.1886797013036,6.09972247677178,,
8593031,"Onex Vallet",46.1849668873508,6.09095491959755,,
8593032,"Onex Bois Carrien",46.1912045202952,6.10050401106907,,
8593033,"Onex Galeries du Loup",46.1851161510412,6.10140232635332,,
8593034,"Onex Genévrière",46.1799352200384,6.10854393286306,,
8593035,"Onex Gros-Chêne",46.1901349067045,6.1033247210616,,
8593037,"Onex Maison Onésienne",46.189239400248,6.10161792202154,,
8593038,"Onex marché",46.1920999947349,6.10330675475592,,
8593039,"Onex Montesquiou",46.1808992957919,6.10606458267855,,
8593042,"Onex Rochette",46.1827403225239,6.10212097858071,,
8593043,"Onex Duret",46.1872058001524,6.10450151408396,,
8593044,"Certoux Foulon",46.1555291454148,6.08422653811856,,
8593045,"Certoux village",46.1559647297817,6.08165735640562,,
8593046,"Perly douane",46.1523554981018,6.09099983536177,,
8593047,"Perly En Louche",46.1576510310327,6.09749465486685,,
8593048,"Perly mairie",46.1553362426651,6.08991287386783,,
8593049,"Saint-Julien douane",46.1507934985949,6.08908642380633,,
8593050,"Plan-les-Ouates Arare",46.1654036182777,6.11136464285559,,
8593051,"Plan-les-Ouates Au Contour",46.1623549783402,6.10223775956767,,
8593052,"Plan-les-Ouates Badosse",46.1560954044194,6.12430038294871,,
8593053,"Plan-les-Ouates Bellins",46.1638419891291,6.12899857188531,,
8593054,"Plan-les-Ouates Centenaire",46.1697523040764,6.10860681493296,,
8593055,"Plan-les-Ouates Roday",46.162784286837,6.1389429220819,,
8593056,"Plan-les-Ouates Ch.-d.-Filles",46.167518901809,6.10985547317806,,
8593057,"Plan-les-Ouates Comm.-Réunies",46.1711333598223,6.1233661350531,,
8593059,"Plan-les-Ouates Galaise",46.1635993415772,6.10630712780529,,
8593060,"Plan-les-Ouates La Chapelle",46.1708223142565,6.13554729030745,,
8593061,"Plan-les-Ouates Les Bruyères",46.1712204522655,6.10801392684536,,
8593062,"Plan-les-Ouates Moulins-Drize",46.167686876721,6.14052395698217,,
8593063,"Plan-les-Ouates Nant-Malet",46.1656462578716,6.12266544913139,,
8593064,"Plan-les-Ouates Aviateurs",46.1695843354718,6.12024898101677,,
8593065,"Plan-les-Ouates Pré-Fleuri",46.1663119558765,6.10732222407649,,
8593067,"Plan-les-Ouates Saconnex-Arve",46.1598412787523,6.12504598463463,,
8593068,"Plan-les-Ouates Serves",46.1669714244616,6.13277149607914,,
8593069,"Plan-les-Ouates Tourbillon",46.1644890440354,6.1037469292452,,
8593070,"Plan-les-Ouates Trèfle-Blanc",46.1715625998144,6.12539632759549,,
8593071,"Plan-les-Ouates Vélodrome",46.1674193608784,6.11578435405407,,
8593072,"Plan-les-Ouates Vuattes",46.1689933307484,6.1217581506943,,
8593073,"Plan-les-Ouates ZIPLO",46.1666043627342,6.10294742864222,,
8593074,"Chambésy Caron",46.2445716847029,6.1379278258107,,
8593075,"Chambésy Foretaille",46.2444784958902,6.1344782951192,,
8593076,"Chambésy place",46.2419374865943,6.14361416155997,,
8593077,"Pregny mairie",46.237333548959,6.14119769344535,,
8593078,"Pregny Penthes",46.2322569648174,6.13877224217789,,
8593079,"Presinge Cara-Douane",46.208937172033,6.2481061954233,,
8593080,"Presinge Bornes",46.2070659385937,6.24497107508128,,
8593081,"Presinge Grand-Cara",46.212225663715,6.25168149025459,,
8593082,"Puplinge Aumônes",46.2104104903834,6.2349009607449,,
8593083,"Puplinge Cornière",46.2083590236558,6.2404884818129,,
8593084,"Puplinge Frémis",46.2118029574757,6.22876546735351,,
8593085,"Puplinge Grésy",46.2083155068651,6.2303285359481,,
8593086,"Puplinge Les Petoux",46.2064318184492,6.22714849984187,,
8593087,"Puplinge Marquis",46.2132699828288,6.2344338367971,,
8593088,"Russin La Chaumaz",46.204647539159,6.00227323473693,,
8593089,"Russin Les Baillets",46.2071467573019,5.9973145343679,,
8593090,"Russin Noirettes",46.1931384780704,6.01645763307515,,
8593091,"Satigny Bois-de-Bay",46.1983679072948,6.0464793298746,,
8593092,"Satigny Bourdigny-Douane",46.2295289612571,6.03862805429031,,
8593093,"Satigny Camping Bois-de-Bay",46.2001834785804,6.06524513616247,,
8593094,"Satigny Chemin du Paradis",46.2133197118151,6.02309618302572,,
8593095,"Satigny Crédery",46.2183358919325,6.02179362586356,,
8593096,"Satigny Les Maladières",46.2231713789877,6.05920845745235,,
8593097,"Satigny Maison-Rouge",46.2059655489669,6.01889206749545,,
8593098,"Vernier Moulières",46.2169498061902,6.06133746467601,,
8593099,"Satigny Pré-de-la-Fontaine",46.2242589941419,6.0552828196602,,
8593100,"Satigny Rue Carrée",46.1986352725865,6.06239747671142,,
8593101,"Satigny mairie",46.2167011772441,6.03146848147488,,
8593102,"Satigny poste",46.2132886312039,6.03360647185138,,
8593103,"Satigny temple",46.2182364429995,6.03049830096789,,
8593104,"Satigny Taboret",46.2045542825502,6.02337466076383,,
8593105,"Satigny Terre Mousson",46.1973233048476,6.05630689908424,,
8593106,"Thônex Jeandin",46.1902530627169,6.19842037705173,,
8593107,"Thônex Belle-Idée-Centre",46.2066369757676,6.20906541317003,,
8593109,"Thônex Pont-Bochet",46.2097888418906,6.21671905939179,,
8593110,"Thônex Cyprès",46.1865092592748,6.19654289810766,,
8593111,"Thônex Fossard",46.1848922553536,6.1919794564637,,
8593112,"Thônex Graveson",46.1932379724497,6.20090871038909,,
8593113,"Thônex Hôpital Trois-Chêne",46.2090615042222,6.21486852990625,,
8593114,"Thônex Jumelles",46.2076814011455,6.21829111113922,,
8593116,"Thônex Tronchet",46.1960486142467,6.20579554553538,,
8593117,"Thônex mairie",46.1880578069034,6.19835749498183,,
8593118,"Thônex Moillesulaz",46.1924482308546,6.20646928199856,,
8593119,"Thônex Mon-Idée",46.2038703959152,6.22269285603202,,
8593120,"Thônex Pierre à Bochet",46.1979326586885,6.21091594265557,,
8593121,"Thônex Plein-Sud",46.2024093368548,6.21898281390809,,
8593122,"Thônex Sillons",46.2005876215592,6.21544345168817,,
8593123,"Thônex Sous-Vilette",46.1816083471704,6.18826941433977,,
8593124,"Thônex Vallard",46.1891523363421,6.20005531086906,,
8593125,"Troinex Pont-de-Drize",46.1635868980842,6.14913880055807,,
8593126,"Troinex Rivolette",46.1680539312249,6.14481790404086,,
8593127,"Troinex Saussac",46.1621994309566,6.14846506409489,,
8593128,"Vandoeuvres Cocuaz",46.2111253774521,6.20704420378048,,
8593129,"Vandoeuvres Crête",46.2175340797824,6.21096984157263,,
8593130,"Vandoeuvres De-Westerweller",46.2122691774078,6.21119442039369,,
8593131,"Vandoeuvres La Blanche",46.219106615056,6.20833777778979,,
8593132,"Vandoeuvres La Blonde",46.2156382758067,6.19478220015054,,
8593133,"Vandoeuvres Les Bougeries",46.2187958409046,6.21499429404604,,
8593134,"Vandoeuvres Loveré",46.2091858361301,6.20159143000511,,
8593135,"Vandoeuvres Mazettes",46.2143080660765,6.21512904133868,,
8593136,"Vandoeuvres Planta",46.214189961786,6.19056910146743,,
8593137,"Vernier Aïre",46.2010974592305,6.10316302431044,,
8593138,"Vernier Avenue de l'Ain",46.2060215015137,6.10994530470648,,
8593139,"Vernier Avanchet",46.2197157272904,6.1055884755779,,
8593141,"Vernier Balexert",46.2184788494581,6.11048429387703,,
8593142,"Vernier Barde",46.2067302288408,6.09885111094606,,
8593143,"Vernier Bois-Chébé",46.2066307588904,6.07290776553708,,
8593144,"Vernier Bois-des-Frères",46.212225663715,6.10513033478293,,
8593146,"Vernier Bouleaux",46.2099380381705,6.07352760308321,,
8593147,"Vernier CO Renard",46.1968072141666,6.09355105076902,,
8593148,"Vernier Campanules",46.1965087498739,6.09916552129555,,
8593149,"Vernier Canada",46.2084771404856,6.06958399898538,,
8593150,"Vernier Champ-Claude",46.2176832550224,6.08831387266187,,
8593151,"Vernier Château-Bloch",46.2088936557002,6.09949789795072,,
8593152,"Vernier Châtelaine",46.2112248392635,6.11279296415754,,
8593153,"Vernier Châtelaine-Pt-Bois",46.2125116102085,6.11216414345857,,
8593154,"Vernier Lignon-Cité",46.2037895723867,6.09863551527784,,
8593155,"Vernier gare/Croisette",46.2190631067807,6.09288629745868,,
8593156,"Vernier Delay",46.2167881975033,6.07918698937395,,
8593157,"Vernier Ecu",46.2098696565925,6.1052920315341,,
8593158,"Vernier Floralies",46.2216486815731,6.11167905320507,,
8593159,"Vernier Grand-Champ",46.2027264210585,6.10135741058911,,
8593161,"Vernier De-Sauvage",46.2136491652119,6.10313607485191,,
8593162,"Vernier Libellules",46.208669856873,6.10757375235608,,
8593165,"Vernier Balexert-Pailly",46.219728158082,6.1142033191538,,
8593166,"Vernier Parfumerie",46.2052816799006,6.0759800038092,,
8593167,"Vernier Pont-Butin",46.2041066486244,6.10892122528244,,
8593168,"Vernier Progrès",46.210615632842,6.07588118912793,,
8593169,"Vernier gare/Renfile",46.219249570575,6.09582378843816,,
8593170,"Vernier Sellieres",46.1979699658469,6.10116876437941,,
8593171,"Vernier SIG Lignon",46.2061582741661,6.10356726618835,,
8593172,"Vernier Sorbier",46.2166514513198,6.06893721198072,,
8593173,"Vernier Lignon-Tours",46.2007679305447,6.0933354551008,,
8593174,"Vernier Usine à gaz",46.2057666061166,6.1082564719721,,
8593175,"Vernier école",46.2165830781004,6.0856728257262,,
8593176,"Vernier marché",46.2152404594515,6.08187295207384,,
8593177,"Vernier village",46.21269809625,6.07909715784552,,
8593178,"Vernier Verseuse",46.1955511659912,6.09667718795819,,
8593179,"Vernier Via Monnet",46.2170243946545,6.08269940213535,,
8593180,"Vernier ZIMOGA",46.2203186174398,6.07566559345971,,
8593181,"Versoix Lachenal",46.2837466562921,6.16310760322808,,
8593182,"Versoix Argand",46.2860312057863,6.16066418565493,,
8593183,"Versoix centre sportif",46.2956774103813,6.15571446843874,,
8593184,"Versoix Colombières",46.2792641926891,6.16324235052071,,
8593185,"Versoix Ecogia",46.2918104422882,6.15410648407995,,
8593186,"Versoix La Scie",46.2746633881847,6.16829986557101,,
8593187,"Versoix La Pelotière",46.2744398574787,6.16432931201465,,
8593188,"Versoix Montfleury",46.2913759344279,6.16339506411903,,
8593189,"Pont-Céard gare",46.2876886861347,6.1633231988963,,
8593190,"Versoix Port Choiseul",46.2887501921471,6.16573966701091,,
8593191,"Versoix bourg",46.2771780458013,6.16741053343961,,
8593192,"Veyrier Bois-Gourmand",46.1722095639074,6.17267466100528,,
8593193,"Veyrier Boqueteaux",46.1634811282796,6.17555825306771,,
8593194,"Vessy Chemin Vert",46.1733168501764,6.14117074398682,,
8593195,"Veyrier Chemin des Bois",46.1635371240838,6.16874902321313,,
8593196,"Vessy Combettes",46.1697834093172,6.14372195939408,,
8593198,"Vessy Grand-Donzel",46.1726761198284,6.16538932405006,,
8593199,"Carouge GE Baumgartner",46.1723588622328,6.13897885469327,,
8593200,"Veyrier La Mouille",46.1647192444263,6.18334664658211,,
8593201,"Veyrier La Salésienne",46.1686013977983,6.18037322299126,,
8593202,"Veyrier Le Reposoir",46.1692359545085,6.1779477717238,,
8593203,"Veyrier Les Quibières",46.1733790566088,6.18220578617112,,
8593204,"Vessy Marsillon",46.1676122212679,6.15496886675282,,
8593205,"Vessy Milière",46.165602707254,6.15801415556641,,
8593206,"Vessy Muguets",46.1712888819456,6.16024197747134,,
8593207,"Veyrier Petit-Veyrier",46.1703495216275,6.18230460085238,,
8593208,"Vessy Pinchat-la-Tour",46.1758174933171,6.15271409538937,,
8593209,"Vessy Place Verte",46.1698269566249,6.15693617722532,,
8593210,"Veyrier Pont de Sierne",46.1786974463843,6.18208002203132,,
8593211,"Veyrier Rasses",46.1665172629817,6.17855862611708,,
8593212,"Veyrier village",46.1681721346963,6.18477496788406,,
8593213,"Veyrier Sierne",46.1770553318006,6.17969948652807,,
8593214,"Vessy Stand de Tir",46.1738704849507,6.16906343356262,,
8593216,"Vessy Plateau",46.1764519667744,6.15944247686836,,
8594933,"Meyrin Bois-du-Lan",46.2273166310179,6.0778215501419,,
8594946,"Meyrin Mategnin",46.2409185647242,6.08811624329934,,
8594947,"La Plaine douane",46.1775405071226,5.99133175457483,,
8594961,"Meyrin Gravière",46.2364325982909,6.08172023847552,,
8595008,"Anières Bassy",46.2785812366788,6.23009497397419,,
8595009,"Anières Courson",46.2825112216316,6.23605080430874,,
8595010,"Anières mairie",46.2747378982174,6.22761562378968,,
8595011,"Avusy Creux-du-Loup",46.1518389852424,5.99579638153753,,
8595012,"Avusy Moulin de la Grave",46.1503578732971,5.99376618899513,,
8595013,"Landecy La Mûre",46.1426591831469,6.13349913145938,,
8595014,"Bernex Maison du Terroir",46.1660382118778,6.07634831307574,,
8595015,"Carouge GE Battelle",46.1789275873132,6.1393022481956,,
8595016,"Chevrens Sous-Chevrens",46.2842557217656,6.23935660455476,,
8595018,"Genève Concorde",46.2053749352745,6.11423026861233,,
8595019,"Genève Horloge Fleurie",46.2045667167739,6.1501808462878,,
8595020,"Genève Les Ouches",46.2102053471586,6.11719470905034,,
8595021,"Genève Palais Eynard",46.1998850326263,6.14712657432137,,
8595022,"Genève Théâtre",46.2021730768465,6.14185346360285,,
8595026,"Meyrin Maillard",46.2286713831519,6.0653349676909,,
8595027,"Cointrin De-Joinville",46.2245821670639,6.10780731432998,,
8595028,"Meyrin mairie",46.2335308152542,6.08042666446621,,
8595029,"Meyrin gare",46.2216735422781,6.07686035278776,,
8595031,"Meyrin Prulay",46.2319400510915,6.07505473906642,,
8595034,"Perly Ravières",46.1550375532024,6.09426071984357,,
8595035,"Plan-les-Ouates Champ-Carré",46.1650489892539,6.13967954061498,,
8595036,"Plan-les-Ouates Manufactures",46.1648436766689,6.10566034080064,,
8595037,"Plan-les-Ouates Pré-Jardinier",46.1627220684219,6.12576463686203,,
8595038,"Plan-les-Ouates Verbant",46.1572776846563,6.12567480533361,,
8595039,"Presinge Basselat",46.2152031640204,6.2507741918175,,
8595040,"Satigny Bourdigny-Dessous",46.2235629229255,6.03859212167894,,
8595041,"Satigny Pré-Bouvier",46.2223012713506,6.05450128536291,,
8595043,"Bernex Sézenove-village",46.1643832759653,6.05637876430698,,
8595044,"Soral village",46.1442089656157,6.04346099051954,,
8595052,"Vernier Signal",46.2200264962354,6.08507095448575,,
8595139,"Vessy Drize",46.1693977030873,6.14053294013501,,
8595224,"Bernex Sézenove-Ferrand",46.1655964857344,6.05516603867325,,
8595225,"Choulex Champ-Dollon",46.2159428520058,6.22333065988383,,
8595226,"Choulex Jurets",46.2184042629694,6.23164905941594,,
8595227,"Presinge L'Avenir-croisée",46.2177454112528,6.23771268758459,,
8595228,"Satigny Centre sportif",46.2100064196634,6.03567259700514,,
8595229,"Choulex Champ-Dollon-Sud",46.2135497077909,6.22102198960332,,
8595358,"Annemasse Parc Montessuit",46.1940712308053,6.23058006422769,,
8595364,"Ambilly Croix d'Ambilly",46.1927156249488,6.22432778984934,,
8595457,"Gy Baraque-à-Cloud",46.2474418226116,6.25740375861523,,
8595458,"Meyrin Bugnons",46.2358858072242,6.07712984737303,,
8595556,"Aire-la-Ville croisée",46.1883438792014,6.04591339124553,,
8595663,"Versoix Canal de Versoix",46.2805245346124,6.15934366218709,,
8595664,"Versoix stand de tir",46.2975394163979,6.14359619525429,,
8595665,"Versoix Collège du Léman",46.2905503599965,6.15643312066614,,
8595666,"Versoix Saint-Loup",46.2826291789077,6.15424123137258,,
8595667,"Versoix Richelien",46.2828713009419,6.1463091074127,,
8595668,"Versoix Observatoire de Genève",46.3037766752311,6.13232233843701,,
8595669,"Sauverny Combes Chapuis",46.3074442240218,6.12560294011087,,
8595670,"Sauverny douane",46.3113783432847,6.12047355983783,,
8595671,"Sauverny Martinet",46.3143194401484,6.12364461279121,,
8595672,"Satigny Peney-Dessus",46.2004073119821,6.03657091228939,,
8595673,"Meinier Essert",46.2447580618534,6.22381575013733,,
8595674,"Meinier Rouelbeau",46.2464602771929,6.21980028081675,,
8595675,"Versoix Moulin-de-Richelien",46.2809591285536,6.13771223014248,,
8595771,"Annemasse gare Rotonde",46.2019989898745,6.23455061778405,,
8595950,"Dardagny Malval-Chapelle",46.2098510070565,5.9933349976587,,
8595951,"Dardagny Malval-Centre Nature",46.2161728369959,5.99615570765122,,
8595952,"Satigny ZIMEYSA-Ouest",46.2209277162289,6.05236329498641,,
8595953,"Avully Bachères",46.1645699253636,5.99215820463634,,
8595999,"Genève Clinique La Colline",46.1914159530759,6.15026169466338,,
8596093,"Coppet bourg",46.315566566413,6.19232979942455,,
8596094,"Genève Dancet",46.1929270519163,6.14234753700918,,
8596097,"Mies gare",46.299357914492,6.16921614716094,,
8596098,"Grand-Saconnex Aéroport-P47",46.2408253697062,6.12209052734947,,
8715815,"Ferney Avenue de Vessy",46.252989087767,6.11626944430756,,
8755607,"Thoiry mairie",46.2360660003367,5.9801926450502,,
8755691,"Gex Vertes Campagnes",46.3262001105066,6.05517502182609,,
8769158,"Maconnex Arcades",46.269515741515,6.09853670059658,,
8769399,"Thoiry Place d'Allemogne",46.2444722832971,5.98434286166341,,
8769926,"Versonnex-Village",46.3008474242496,6.09541954656025,,
8771695,"Saint-Genis Porte de France",46.2408440087224,6.02929455848701,,
